{
    "locations":[
        {
            "no.": 1,
            "latitude": 1.32283,
            "longitude": 103.93901,
            "street": "Blk 33 Bedok South Ave 2 S460033"
        },
        {
            "no.": 2,
            "latitude": 1.33724,
            "longitude": 103.91892,
            "street": "Blk 702 Bedok Reservoir Road S470702"
        },
        {
            "no.": 3,
            "latitude": 1.32350,
            "longitude": 103.92327,
            "street": "Blk 61 Chai Chee Road #01-840 S460061"
        },
        {
            "no.": 4,
            "latitude": 1.30372,
            "longitude": 103.91507,
            "street": "Blk 20 Marine Terrace - level one opposite RC S440020"
        },
        {
            "no.": 5,
            "latitude": 1.40147,
            "longitude": 103.91212,
            "street": "Blk 618B Punggol Drive S822618"
        },
        {
            "no.": 6,
            "latitude": 1.29070,
            "longitude": 103.80236,
            "street": "Blk 166 Stirling Road S140166"
        },
        {
            "no.": 7,
            "latitude": 1.36031,
            "longitude": 103.95219,
            "street": "Blk 441 Tampines Street 43 S520441"
        },
        {
            "no.": 8,
            "latitude": 1.33132,
            "longitude": 103.84267,
            "street": "Blk 170 Lorong 1 Toa Payoh S310170"
        },
        {
            "no.": 9,
            "latitude": 1.33373,
            "longitude": 103.85572,
            "street": "Blk 261A Toa Payoh East 1 S311261"
        },
        {
            "no.": 10,
            "latitude": 1.34228,
            "longitude": 103.84775,
            "street": "205 Toa Payoh North S310205"
        },
        {
            "no.": 11,
            "latitude": 1.43306,
            "longitude": 103.83240,
            "street": "Blk 162 Yishun Street 11 S760162"
        },
        {
            "no.": 12,
            "latitude": 1.41429,
            "longitude": 103.83984,
            "street": "Blk 508B Yishun Avenue 4 S762508"
        },
        {
            "no.": 13,
            "latitude": 1.41790,
            "longitude": 103.83135,
            "street": "Blk 804 Yishun Ring Road S760804"
        },
        {
            "no.": 14,
            "latitude": 1.44176,
            "longitude": 103.80114,
            "street": "Blk 718 Woodlands Avenue 6 S730718"
        }
    ]
}